"LOCATION_NAME","TSN","LATITUDE","LONGITUDE","PHONE","EFA_ID","ADDRESS","FACILITIES","ACCESSIBILITY","TRANSPORT_MODE"
"Abbotsford Wharf","20461","-33.84367442","151.1281726","","10102011","Great North Rd, Abbotsford NSW 2046","Bike lockers | Emergency help point | Opal card top up or single trip ticket machine | Toilets","This location is wheelchair accessible | Hearing loop | PA system for announcements","Bus, Ferry"
"Aberdeen Station","233610","-32.16710358","150.8920522","02 6543 1018","10101192","New England Hwy, Aberdeen NSW 2336","Emergency help point | No Opal card top up or single trip ticket sales | Wheelchair accessible car space","This location is wheelchair accessible | Tactile surfaces | PA system for announcements","Train"
"Adamstown Station","228920","-32.93372988","151.7200807","02 4962 9295","10101159","Park Ave, Adamstown NSW 2289","Commuter car park | Emergency help point | Kiss and ride stopping area | Payphone | No Opal card top up or single trip ticket sales","This location is wheelchair accessible | Level crossing | Stairs | Tactile surfaces | PA system for announcements | Short platforms, leave the train from the last 4 cars","Train, Bus"
"Albion Park Station","252710","-34.56264671","150.7984997","02 4223 5416","10101381","Princes Hwy, Albion Park Rail NSW 2527","Bike racks | Commuter car park | Emergency help point | Kiss and ride stopping area | Payphone | Opal card top up or single trip ticket machine | Toilets | Wheelchair accessible car space","This location is wheelchair accessible | Level crossing | Stairs | Tactile surfaces | PA system for announcements","Train, Bus"
"Albury Station","26401","-36.084068","146.924691","13 22 32","10155026","Railway Pl, East Albury NSW 2640","Commuter car park | Emergency help point | Payphone | Toilets | Wheelchair accessible car space | Wheelchair accessible toilet | Baby change table | Taxi rank","This location is wheelchair accessible | Wheelchair ramp boarding assistance | Stairs | PA system for announcements | Short platforms, please see the train guard","Train, Coach, Taxi"
"Allawah Station","222020","-33.96958391","151.11433","02 9563 7415","10101338","Railway Pde, Allawah NSW 2218","Bike racks | Commuter car park | Emergency help point | Kiss and ride stopping area | Payphone | Opal card top up or single trip ticket machine | Toilets | Wheelchair accessible car space | Wheelchair accessible toilet | Baby change table","This location is wheelchair accessible | Hearing loop | Lift | Wheelchair ramp boarding assistance | Stairs | Tactile surfaces | PA system for announcements","Train, Bus"
"Alstonville Coach Stop","24771","-28.8418","153.44001","","10150208","Main St at Daley St, Alstonville NSW 2477","","","Coach"
"Ariah Park Coach Stop","26651","-34.347706","147.221084","","10150172","Ariah Park Post Office, Coolamon St, Ariah Park NSW 2665","","","Coach"
"Arlington Light Rail","220366","-33.90184127","151.1380613","","10101460","Constitution Rd, Dulwich Hill NSW 2203","Bike racks | Emergency help point | Kiss and ride stopping area | Opal card top up or single trip ticket machine","This location is wheelchair accessible | Hearing loop | Level crossing | Stairs | Tactile surfaces | PA system for announcements","Light rail"
"Armidale Station","23501","-30.515373","151.651753","13 22 32","10155025","Brown St, Armidale NSW 2350","Bike racks | Commuter car park | Payphone | Toilets | Wheelchair accessible car space | Wheelchair accessible toilet | Baby change table | Taxi rank","This location is wheelchair accessible | Wheelchair ramp boarding assistance | Stairs | PA system for announcements","Train, Coach, Taxi"
"Arncliffe Station","220520","-33.93645619","151.1472995","02 9563 7431","10101333","Firth St, Arncliffe NSW 2205","Bike racks | Commuter car park | Emergency help point | Kiss and ride stopping area | Payphone | Opal card top up or single trip ticket machine | Toilets | Taxi rank","Hearing loop | Stairs | Tactile surfaces | This location is not wheelchair accessible | PA system for announcements","Train, Bus, Taxi"
"Artarmon Station","206410","-33.80890264","151.1852939","02 9379 1140","10101116","Hampden Rd, Artarmon NSW 2064","Bike lockers | Bike racks | Emergency help point | Kiss and ride stopping area | Payphone | Opal card top up or single trip ticket machine | Toilets | Wheelchair accessible toilet | Baby change table | Taxi rank","This location is wheelchair accessible | Hearing loop | Stairs | Tactile surfaces | PA system for announcements","Train, Taxi"
"Ashfield Station","213110","-33.88755061","151.1255042","02 9752 8356","10101209","Brown St, Ashfield NSW 2131","Bike racks | Commuter car park | Emergency help point | Kiss and ride stopping area | Payphone | Opal card top up or single trip ticket machine | Toilets | Wheelchair accessible car space | Wheelchair accessible toilet | Taxi rank","This location is wheelchair accessible | Hearing loop | Lift | Wheelchair ramp boarding assistance | Stairs | Tactile surfaces | PA system for announcements","Train, Bus, Taxi"
"Asquith Station","207730","-33.68876996","151.1080252","02 9847 8495","10101128","Haldane St, Asquith NSW 2077","Commuter car park | Emergency help point | Kiss and ride stopping area | Payphone | Opal card top up or single trip ticket machine | Toilets | Wheelchair accessible car space","Hearing loop | Wheelchair ramp boarding assistance | This location is not wheelchair accessible | PA system for announcements | Short platforms, leave the train from the last 6 cars","Train"
"Auburn Station","214410","-33.8492696","151.032867","02 9848 9206","10101219","Rawson St, Auburn NSW 2144","Bike lockers | Bike racks | Emergency help point | Kiss and ride stopping area | Payphone | Opal card top up or single trip ticket machine | Toilets | Wheelchair accessible toilet (MLAK) | Baby change table | Taxi rank","This location is wheelchair accessible | Hearing loop | Lift | Wheelchair ramp boarding assistance | Stairs | Tactile surfaces | PA system for announcements","Train, Bus, Taxi"
"Austinmer Station","251540","-34.30641046","150.9293128","02 4223 5573","10101363","Railway Ave, Austinmer NSW 2515","Bike racks | Commuter car park | Emergency help point | No Opal card top up or single trip ticket sales | Toilets | Wheelchair accessible car space","Tactile surfaces | This location is not wheelchair accessible | PA system for announcements","Train, Bus"
"Awaba Station","228310","-33.0129204","151.5416347","02 4349 9241","10101150","Adelaide St, Awaba NSW 2283","Commuter car park | Emergency help point | No Opal card top up or single trip ticket sales","Stairs | This location is not wheelchair accessible | PA system for announcements | Short platforms, leave the train from the last 4 cars","Train, Bus"
"Ballina Coach Stop","24782","-28.86933","153.560592","","10150141","Tamar St before Moon St, Ballina NSW 2478","","","Coach, Bus"
"Ballina West Coach Stop","24781","-28.864101","153.533926","","10150143","Westower Tavern, River St, West Ballina NSW 2478","","","Coach, Bus"
"Balmain East Wharf","20414","-33.85696725","151.1959756","","10102010","Darling St, Balmain East NSW 2041","Bike racks | Emergency help point | Opal card top up or single trip ticket machine","This location is wheelchair accessible | Hearing loop | Tactile surfaces | PA system for announcements","Bus, Ferry"
"Balmain Wharf","20413","-33.85471605","151.1863604","","10102008","Thames St, Balmain NSW 2041","Bike racks | Emergency help point | Opal card top up or single trip ticket machine | Wheelchair accessible car space","This location is wheelchair accessible | Hearing loop | PA system for announcements","Ferry"
"Banksia Station","221610","-33.94528645","151.1404316","02 9563 7429","10101334","Hattersley St, Banksia NSW 2216","Bike racks | Emergency help point | Payphone | Opal card top up or single trip ticket machine | Toilets | Wheelchair accessible car space | Taxi rank","Hearing loop | Stairs | Tactile surfaces | This location is not wheelchair accessible | PA system for announcements","Train, Bus, Taxi"
"Bankstown Station","220010","-33.91786454","151.0346869","02 9563 7160","10101401","North Tce, Bankstown NSW 2200","Bike lockers | Bike racks | Commuter car park | Emergency help point | Kiss and ride stopping area | Payphone | Opal card top up or single trip ticket machine | Toilets | Wheelchair accessible car space | Wheelchair accessible payphone | Wheelchair accessible toilet | Baby change table | Taxi rank","This location is wheelchair accessible | Hearing loop | Lift | Wheelchair ramp boarding assistance | Stairs | Tactile surfaces | PA system for announcements","Train, Bus, Taxi"
"Barangaroo Wharf","2000441","-33.864377","151.200591","","10102039","Wulugul Walk, Barangaroo NSW 2000","Opal card top up or single trip ticket machine | Emergency help point","This location is wheelchair accessible | Hearing loop | PA system for announcements | Tactile surfaces","Ferry"
"Bardwell Park Station","220710","-33.93161666","151.1248574","02 9563 7428","10101410","Hartill-Law Ave, Bardwell Park NSW 2207","Commuter car park | Emergency help point | Kiss and ride stopping area | Payphone | Opal card top up or single trip ticket machine | Toilets","Hearing loop | Stairs | This location is not wheelchair accessible | PA system for announcements","Train, Bus"
"Bargo Station","257420","-34.29136493","150.5802091","02 4684 1320","10101303","Hume Hwy, Bargo NSW 2574","Commuter car park | Emergency help point | No Opal card top up or single trip ticket sales | Toilets | Wheelchair accessible car space","This location is not wheelchair accessible | PA system for announcements | Short platforms, leave the train from the last 2 cars","Train, Bus"
"Barraba Coach Stop","23472","-30.380272","150.609609","","10150015","Alice St before Queen St, Barraba NSW 2347","","","Coach"
"Bathurst Station","279538","-33.42562703","149.5832161","13 22 32","10101281","Keppel St, Bathurst NSW 2795","Bike racks | Commuter car park | Payphone | No Opal card top up or single trip ticket sales | Toilets | Wheelchair accessible car space | Wheelchair accessible payphone | Wheelchair accessible toilet (MLAK) | Baby change table | Taxi rank","This location is wheelchair accessible | Wheelchair ramp boarding assistance | PA system for announcements","Train, Coach, Bus, Taxi"
"Batlow Coach Stop","27301","-35.520277","148.14722","","10150240","Memorial Ave at Pioneer St, Batlow NSW 2730","","","Coach"
"Beckom Coach Stop","26652","-34.331341","146.958477","","10150171","Service Station, Newell Hwy, Beckom NSW 2665","","","Coach"
"Beecroft Station","211910","-33.74995417","151.0662982","02 9847 8421","10101197","Wongala Cres, Beecroft NSW 2119","Bike lockers | Bike racks | Commuter car park | Emergency help point | Kiss and ride stopping area | Payphone | Opal card top up or single trip ticket machine | Toilets | Wheelchair accessible car space | Wheelchair accessible toilet | Taxi rank","Hearing loop | Stairs | This location is not wheelchair accessible | PA system for announcements","Train, Bus, Taxi"
"Beenleigh Coach Stop","42071","-27.717673","153.204518","","10150020","Beenleigh Station, Coach Terminal, Alamein St, Beenleigh QLD 4207","","","Coach"
"Bega Coach Stop","25503","-36.673857","149.842188","","10150291","Church St at Carp St, Bega NSW 2550","","","Bus, Coach"
"Bell Station","278620","-33.50568554","150.2788861","02 4787 8452","10101272","Bells Line of Road, Bell NSW 2786","Emergency help point | No Opal card top up or single trip ticket sales","Level crossing | This location is not wheelchair accessible | PA system for announcements | Short platforms, leave the train from the last 4 cars","Train"
"Bellambi Station","251810","-34.36331842","150.9099025","02 4223 5579","10101367","Bellambi Lane, Bellambi NSW 2518","Commuter car park | Emergency help point | Payphone | No Opal card top up or single trip ticket sales | Toilets | Wheelchair accessible car space | Taxi rank","Level crossing | Tactile surfaces | This location is not wheelchair accessible | PA system for announcements | Short platforms, leave the train from the last 6 cars","Train, Bus, Taxi"
"Bellata Station","23971","-29.9183","149.7905","13 22 32","10155045","Newell Hwy, Bellata NSW 2397","","This location is wheelchair accessible | Wheelchair ramp boarding assistance | Short platforms, please see the train guard","Train"
"Belmore Station","219210","-33.91721798","151.0887332","02 9563 7578","10101397","Burwood Rd, Belmore NSW 2192","Commuter car park | Emergency help point | Kiss and ride stopping area | Payphone | Opal card top up or single trip ticket machine | Toilets | Wheelchair accessible car space | Wheelchair accessible toilet | Taxi rank","This location is wheelchair accessible | Hearing loop | Lift | Wheelchair ramp boarding assistance | Stairs | Tactile surfaces | PA system for announcements","Train, Bus, Taxi"
"Bemboka Coach Stop","25501","-36.627333","149.568778","","10150295","General Store, Snowy Mountains Hwy, Bemboka NSW 2550","","","Coach"
"Berala Station","214120","-33.87183567","151.0324418","02 9752 8813","10101390","Woodburn Rd, Berala NSW 2141","Bike racks | Emergency help point | Kiss and ride stopping area | Payphone | Opal card top up or single trip ticket machine | Toilets | Taxi rank","Hearing loop | Stairs | Tactile surfaces | This location is wheelchair accessible | PA system for announcements | Lift","Train, Bus, Taxi"
"Beresfield Station","232230","-32.79894599","151.6578627","02 4962 9944","10101172","Addison St, Beresfield NSW 2322","Commuter car park | Emergency help point | Payphone | Opal card top up or single trip ticket machine | Toilets | Wheelchair accessible payphone | Wheelchair accessible toilet | Taxi rank","This location is wheelchair accessible | Hearing loop | Lift | Stairs | Tactile surfaces | PA system for announcements","Train, Bus, Taxi"
"Berowra Station","208110","-33.6236572","151.1529711","02 9847 8496","10101131","Pacific Hwy, Berowra NSW 2081","Bike lockers | Bike racks | Commuter car park | Emergency help point | Payphone | Opal card top up or single trip ticket machine | Toilets | Wheelchair accessible car space | Wheelchair accessible payphone","This location is wheelchair accessible | Hearing loop | Wheelchair ramp boarding assistance | Stairs | Tactile surfaces | PA system for announcements | Short platforms, leave the train from the last 6 cars","Train, Bus"
"Berridale Coach Stop (northbound)","26282","-36.365118","148.82788","","10161931","Berridale Inn, Jindabyne Rd, Berridale NSW 2628","","","Coach"
"Berridale Coach Stop (southbound)","26281","-36.365863","148.827031","","10161932","Berridale Lions Park, Jindabyne Rd, Berridale NSW 2628","","","Coach"
"Berry Station","253510","-34.78033267","150.6969659","02 4464 1022","10101388","Station Rd, Berry NSW 2535","Bike racks | Commuter car park | Emergency help point | Payphone | No Opal card top up or single trip ticket sales | Toilets | Wheelchair accessible car space | Wheelchair accessible payphone | Taxi rank","This location is wheelchair accessible | Hearing loop | Level crossing | Tactile surfaces | PA system for announcements","Train, Bus, Taxi"
"Beverly Hills Station","220910","-33.94884857","151.0816922","02 9563 7650","10101413","Morgan St, Beverly Hills NSW 2209","Commuter car park | Emergency help point | Kiss and ride stopping area | Payphone | Opal card top up or single trip ticket machine | Toilets | Wheelchair accessible toilet | Baby change table | Taxi rank","This location is wheelchair accessible | Hearing loop | Lift | Wheelchair ramp boarding assistance | Stairs | Tactile surfaces | PA system for announcements","Train, Bus, Taxi"
"Bexley North Station","220720","-33.93756601","151.1133973","02 9563 7613","10101411","Kingsgrove Ave, Bexley North NSW 2207","Commuter car park | Emergency help point | Kiss and ride stopping area | Payphone | Opal card top up or single trip ticket machine | Toilets","Hearing loop | Stairs | This location is not wheelchair accessible | PA system for announcements","Train, Bus"
"Bingara Coach Stop (northbound)","240421","-29.868516","150.572172","","10150275","Cunningham St at Maitland St, Bingara NSW 2404","","","Coach"
"Bingara Coach Stop (southbound)","240422","-29.869512","150.572223","","10150275","Maitland St after Cunningham St, Bingara NSW 2404","","","Coach"
"Binnaway Coach Stop","23951","-31.55185","149.378649","","10150219","Binnaway Post Office, Bullinda St, Binnaway NSW 2395","","","Coach"
"Birchgrove Wharf","20412","-33.84645581","151.1863405","","10102007","Louisa Rd, Birchgrove NSW 2041","Emergency help point | No Opal card top up or single trip ticket sales","Hearing loop | Stairs | This location is not wheelchair accessible | PA system for announcements","Ferry"
"Birrong Station","214320","-33.8932786","151.0240413","02 9379 7727","10101403","Rodd St, Birrong NSW 2143","Commuter car park | Emergency help point | Kiss and ride stopping area | Payphone | Opal card top up or single trip ticket machine | Toilets | Wheelchair accessible car space | Wheelchair accessible toilet","Hearing loop | Stairs | Tactile surfaces | This location is not wheelchair accessible | PA system for announcements","Train"
"Blackheath Station","278510","-33.63288104","150.284345","02 4780 3992","10101270","Railway Pde, Blackheath NSW 2785","Bike lockers | Bike racks | Commuter car park | Emergency help point | Kiss and ride stopping area | Payphone | No Opal card top up or single trip ticket sales | Toilets | Wheelchair accessible car space | Wheelchair accessible payphone | Taxi rank","Level crossing | Stairs | Tactile surfaces | This location is not wheelchair accessible | PA system for announcements","Train, Bus, Taxi"
"Blacktown Station","214810","-33.76822903","150.9075105","02 9851 7212","10101235","Main St, Blacktown NSW 2148","Bike lockers | Bike racks | Bike shed | Commuter car park | Emergency help point | Kiss and ride stopping area | Payphone | Opal card top up or single trip ticket machine | Toilets | Wheelchair accessible car space | Wheelchair accessible payphone | Wheelchair accessible toilet | Taxi rank","This location is wheelchair accessible | Escalator | Hearing loop | Lift | Wheelchair ramp boarding assistance | Stairs | Tactile surfaces | PA system for announcements","Train, Bus, Taxi"
"Blaxland Station","277410","-33.74357659","150.6095957","02 4739 1620","10101256","Station St, Blaxland NSW 2774","Bike lockers | Bike racks | Commuter car park | Emergency help point | Payphone | Opal card top up or single trip ticket machine | Toilets | Wheelchair accessible car space | Wheelchair accessible payphone | Wheelchair accessible toilet | Taxi rank","This location is wheelchair accessible | Hearing loop | Lift | Stairs | Tactile surfaces | PA system for announcements | Short platforms, leave the train from the last 6 cars","Train, Bus, Taxi"
"Blayney Station","27991","-33.52704","149.254516","13 22 32","10155031","Railway Ln, Blayney NSW 2799","Commuter car park | Emergency help point | Toilets | Wheelchair accessible car space | Wheelchair accessible toilet | Baby change table","This location is wheelchair accessible | Wheelchair ramp boarding assistance | PA system for announcements","Train"
"Bogan Gate Coach Stop","28761","-33.107693","147.803932","","10150229","General Store, Station St, Bogan Gate NSW 2876","","","Coach"
"Boggabri Station","23821","-30.703834","150.039827","13 22 32","10155054","Oakham St, Boggabri NSW 2382","Emergency help point","This location is wheelchair accessible | Wheelchair ramp boarding assistance | Stairs | PA system for announcements | Short platforms, please see the train guard","Train"
"Bomaderry Station","254110","-34.85377666","150.6098088","02 4423 0141","10101389","Meroo St, Bomaderry NSW 2541","Bike lockers | Bike racks | Commuter car park | Emergency help point | Payphone | Opal card top up or single trip ticket machine | Toilets | Wheelchair accessible car space | Wheelchair accessible toilet | Baby change table | Taxi rank","This location is wheelchair accessible | Hearing loop | Tactile surfaces | PA system for announcements","Train, Bus, Taxi"
"Bombala Coach Stop","26322","-36.911161","149.240322","","10150052","Forbes St at Maybe St, Bombala NSW 2632","","","Coach"
"Bombo Station","253320","-34.6580285","150.8539755","02 4223 5613","10101385","Princes Hwy, Bombo NSW 2533","Commuter car park | Emergency help point | Payphone | No Opal card top up or single trip ticket sales | Wheelchair accessible car space | Taxi rank","This location is wheelchair accessible | Stairs | Tactile surfaces | PA system for announcements","Train, Taxi"
"Bondi Junction Station","202210","-33.89120228","151.2483843","02 9379 4843","10101109","Grafton St, Bondi Junction NSW 2022","Bike lockers | Bike racks | Emergency help point | Payphone | Opal card top up or single trip ticket machine | Toilets | Wheelchair accessible car space | Wheelchair accessible payphone | Wheelchair accessible toilet (MLAK) | Baby change table | Taxi rank","This location is wheelchair accessible | Escalator | Hearing loop | Lift | Wheelchair ramp boarding assistance | Stairs | Tactile surfaces | PA system for announcements","Train, Bus, Taxi"
"Booragul Station","228410","-32.97142254","151.6046902","02 4962 9437","10101152","Station St, Booragul NSW 2284","Emergency help point | No Opal card top up or single trip ticket sales | Wheelchair accessible car space","Stairs | This location is not wheelchair accessible | PA system for announcements | Short platforms, leave the train from the last 4 cars","Train"
"Bourke Coach Stop","28401","-30.094494","145.935178","","10150352","Bourke Visitor Information Centre, Anson St, Bourke NSW 2840","","","Coach"
"Bowral Station","257610","-34.47812317","150.4166585","02 4861 2045","10101306","Station St, Bowral NSW 2576","Bike racks | Commuter car park | Emergency help point | Kiss and ride stopping area | Payphone | Opal card top up or single trip ticket machine | Toilets | Wheelchair accessible car space | Wheelchair accessible toilet | Baby change table | Taxi rank","This location is wheelchair accessible | Hearing loop | Lift | Stairs | Tactile surfaces | PA system for announcements","Train, Bus, Taxi"
"Branxton Station","233510","-32.66225215","151.3456449","02 6543 1018","10101189","Railway St, Branxton NSW 2335","Commuter car park | Emergency help point | No Opal card top up or single trip ticket sales","Stairs | This location is not wheelchair accessible | PA system for announcements | Short platforms, leave the train from the middle doors","Train"
"Bredbo Coach Stop","26261","-35.955665","149.14802","","10150178","Service Station,Monaro Hwy, Bredbo NSW 2626","","","Coach"
"Brewarrina Coach Stop","28391","-29.96192","146.861301","","10150252","Belmore St after Bathurst St, Brewarrina NSW 2839","","","Coach"
"Brisbane (Roma Street) Station","40002","-27.46577","153.018781","","10155061","Roma St, Brisbane QLD 4000","","","Train, Coach"
"Broadmeadow Station","229210","-32.92301689","151.734686","02 4962 9122","10101160","Graham Rd, Broadmeadow NSW 2292","Bike racks | Commuter car park | Emergency help point | Kiss and ride stopping area | Payphone | Opal card top up or single trip ticket machine | Toilets | Wheelchair accessible car space | Wheelchair accessible payphone | Wheelchair accessible toilet | Taxi rank","Hearing loop | Stairs | This location is wheelchair accessible | PA system for announcements | Short platforms, leave the train from the last 6 cars | Lift | Tactile surfaces","Train, Coach, Bus, Taxi"
"Broken Hill Station","28801","-31.959275","141.466665","13 22 32","10155000","Crystal St, Broken Hill NSW 2880","Commuter car park | Emergency help point | Toilets | Wheelchair accessible car space | Wheelchair accessible toilet | Taxi rank","This location is wheelchair accessible | Wheelchair ramp boarding assistance | Stairs | Tactile surfaces | PA system for announcements","Train, Taxi"
"Broken Hill Town Coach Stop","28802","-31.960181","141.460489","","10150203","Broken Hill Visitor Information Centre, Bromide St, Broken Hill NSW 2880","","","Coach"
"Brunswick Heads Coach Stop","24832","-28.54016","153.550552","","10150338","Brunswick Heads Information Centre, Park St, Brunswick Heads NSW 2483","","","Coach, Bus"
"Bullaburra Station","278410","-33.72360616","150.4146074","02 4759 1052","10101265","Great Western Hwy, Bullaburra NSW 2784","Commuter car park | Emergency help point | Payphone | No Opal card top up or single trip ticket sales","Stairs | This location is not wheelchair accessible | PA system for announcements | Short platforms, leave the train from the last 6 cars","Train, Bus"
"Bulli Station","251610","-34.33448098","150.9147439","02 4223 5577","10101365","Railway St, Bulli NSW 2516","Bike racks | Commuter car park | Emergency help point | Kiss and ride stopping area | Payphone | No Opal card top up or single trip ticket sales | Toilets | Wheelchair accessible car space | Wheelchair accessible payphone | Wheelchair accessible toilet | Taxi rank","This location is wheelchair accessible | Lift | PA system for announcements","Train, Bus, Taxi"
"Bundanoon Station","257810","-34.65613474","150.2987371","02 4868 1115","10101310","Railway Ave, Bundanoon NSW 2578","Commuter car park | Emergency help point | No Opal card top up or single trip ticket sales | Toilets | Wheelchair accessible car space | Wheelchair accessible toilet","Level crossing | This location is not wheelchair accessible | PA system for announcements","Train, Bus"
"Bungendore Station","26211","-35.255778","149.446409","13 22 32","10155034","Majara St, Bungendore NSW 2621","Commuter car park | Toilets","This location is wheelchair accessible | Wheelchair ramp boarding assistance | PA system for announcements | Short platforms, please see the train guard","Train"
"Burleigh Heads Coach Stop (northbound)","42201","-28.089973","153.452729","","10150242","Burleigh Heads Bowling Club, Gold Coast Hwy, Burleigh Heads QLD 4220","","","Coach, Bus"
"Burleigh Heads Coach Stop (southbound)","42202","-28.088426","153.451792","","10150243","Gold Coast Hwy at The Esplanade, Burleigh Heads QLD 4220","","","Coach, Bus"
"Burradoo Station","257620","-34.49401919","150.3983388","02 4861 2045","10101307","Station St, Burradoo NSW 2576","Emergency help point | Payphone | No Opal card top up or single trip ticket sales | Wheelchair accessible car space","Level crossing | This location is not wheelchair accessible | PA system for announcements | Short platforms, leave the train from the last 2 cars","Train"
"Burwood Station","213410","-33.87731465","151.1047622","02 9752 8734","10101207","Railway Pde, Burwood NSW 2134","Emergency help point | Kiss and ride stopping area | Payphone | Opal card top up or single trip ticket machine | Toilets | Wheelchair accessible toilet | Taxi rank","This location is wheelchair accessible | Hearing loop | Lift | Wheelchair ramp boarding assistance | Stairs | Tactile surfaces | PA system for announcements","Train, Bus, Taxi"
"Byron Bay Coach Stop","24811","-28.644828","153.612473","","10150195","Byron Bay Visitor Information Centre, Jonson St, Byron Bay NSW 2481","","","Coach, Bus"
"Cabarita Wharf","21371","-33.84096251","151.1164853","","10102031","Cabarita Rd, Cabarita NSW 2137","Bike lockers | Commuter car park | Emergency help point | Opal card top up or single trip ticket machine","This location is wheelchair accessible | Hearing loop | PA system for announcements","Bus, Ferry"
"Cabramatta Station","216620","-33.89486655","150.9388206","02 9765 1234","10101287","Railway Pde, Cabramatta NSW 2166","Commuter car park | Emergency help point | Kiss and ride stopping area | Payphone | Opal card top up or single trip ticket machine | Toilets | Wheelchair accessible car space | Wheelchair accessible toilet | Baby change table | Taxi rank","This location is wheelchair accessible | Hearing loop | Lift | Wheelchair ramp boarding assistance | Tactile surfaces | PA system for announcements","Train, Bus, Taxi"
"Camellia Station","214210","-33.81873435","151.0243009","02 9848 9212","10101222","Grand Ave, Camellia NSW 2142","Commuter car park | Emergency help point | Kiss and ride stopping area | Payphone | No Opal card top up or single trip ticket sales | Wheelchair accessible payphone","Hearing loop | Level crossing | This location is not wheelchair accessible | PA system for announcements","Train"
"Campbelltown Station","256020","-34.06383549","150.813929","02 4629 0721","10101296","Hurley St, Campbelltown NSW 2560","Bike lockers | Bike racks | Bike shed | Commuter car park | Emergency help point | Kiss and ride stopping area | Payphone | Opal card top up or single trip ticket machine | Toilets | Wheelchair accessible car space | Wheelchair accessible toilet | Taxi rank","This location is wheelchair accessible | Hearing loop | Lift | Wheelchair ramp boarding assistance | Stairs | Tactile surfaces | PA system for announcements","Train, Bus, Taxi"
"Campsie Station","219410","-33.91048116","151.1026308","02 9718 3020","10101396","Beamish St, Campsie NSW 2194","Bike racks | Commuter car park | Emergency help point | Kiss and ride stopping area | Payphone | Opal card top up or single trip ticket machine | Toilets | Wheelchair accessible car space | Wheelchair accessible toilet | Taxi rank","This location is wheelchair accessible | Hearing loop | Lift | Wheelchair ramp boarding assistance | Stairs | Tactile surfaces | PA system for announcements","Train, Bus, Taxi"
"Canberra Civic Coach Stop","26011","-35.278997","149.127618","","10150073","Canberra House, West Row, Canberra ACT 2601","","","Coach, Bus"
"Canberra Hospital Coach Stop","26051","-35.34638","149.101761","","10150327","Main entrance, Hospital Rd, Garran ACT 2605","","","Coach, Bus"
"Canberra John James Hospital Coach Stop","26001","-35.318475","149.095764","","10150034","Strickland Cres, Deakin ACT 2600","","","Coach, Bus"
"Canberra Station","26041","-35.319272","149.149396","13 22 32","10155022","Burke Cres, Kingston ACT 2604","Commuter car park | Payphone | Toilets | Wheelchair accessible car space | Wheelchair accessible toilet | Baby change table | Taxi rank","This location is wheelchair accessible | Wheelchair ramp boarding assistance | PA system for announcements","Train, Coach, Taxi"
"Canley Vale Station","216610","-33.88679793","150.943987","02 9765 1102","10101286","Railway Pde, Canley Vale NSW 2166","Commuter car park | Emergency help point | Kiss and ride stopping area | Opal card top up or single trip ticket machine | Toilets | Wheelchair accessible car space","Wheelchair ramp boarding assistance | Stairs | This location is not wheelchair accessible | PA system for announcements","Train, Bus"
"Canowindra Coach Stop","28041","-33.56361","148.65979","","10150114","Museum Memorial Park, Blatchford St, Canowindra NSW 2804","","","Coach"
"Canterbury Station","219320","-33.91167214","151.1182133","02 9563 7678","10101395","Canterbury Rd, Canterbury NSW 2193","Bike lockers | Bike racks | Emergency help point | Kiss and ride stopping area | Payphone | Opal card top up or single trip ticket machine | Toilets","Hearing loop | Stairs | Tactile surfaces | This location is not wheelchair accessible | PA system for announcements","Train, Bus"
"Capitol Square Light Rail","2000255","-33.87975438","151.2056556","","10101442","Hay St, Haymarket NSW 2000","Emergency help point | Opal card top up or single trip ticket machine","This location is wheelchair accessible | Tactile surfaces | PA system for announcements","Light rail"
"Cardiff Station","228520","-32.94182388","151.6629801","02 4962 9437","10101157","Main Rd, Cardiff NSW 2285","Bike racks | Commuter car park | Emergency help point | Kiss and ride stopping area | Payphone | Opal card top up or single trip ticket machine | Wheelchair accessible car space | Wheelchair accessible toilet | Taxi rank","This location is wheelchair accessible | Hearing loop | Lift | Stairs | Tactile surfaces | PA system for announcements","Train, Bus, Taxi"
"Caringbah Station","222910","-34.04161039","151.1227476","02 9522 1249","10101349","The Kingsway, Caringbah NSW 2229","Emergency help point | Payphone | Opal card top up or single trip ticket machine | Toilets | Wheelchair accessible toilet | Taxi rank","This location is wheelchair accessible | Hearing loop | Lift | Wheelchair ramp boarding assistance | Stairs | Tactile surfaces | PA system for announcements","Train, Bus, Taxi"
"Carlingford Station","211810","-33.78220108","151.0470507","02 9848 9025","10101226","Lloyds Ave, Carlingford NSW 2118","Commuter car park | Emergency help point | Kiss and ride stopping area | Payphone | No Opal card top up or single trip ticket sales | Toilets | Wheelchair accessible car space | Wheelchair accessible toilet","This location is wheelchair accessible | Hearing loop | Tactile surfaces | PA system for announcements","Train, Bus"
"Carlton Station","221810","-33.96826632","151.1243369","02 9563 7612","10101337","Railway Pde, Carlton NSW 2218","Emergency help point | Kiss and ride stopping area | Payphone | Opal card top up or single trip ticket machine | Toilets | Wheelchair accessible car space | Wheelchair accessible toilet | Taxi rank","This location is wheelchair accessible | Hearing loop | Lift | Wheelchair ramp boarding assistance | Stairs | Tactile surfaces | PA system for announcements","Train, Bus, Taxi"
"Carramar Station","216330","-33.88431779","150.9615486","02 9765 1168","10101408","Wattle Ave, Carramar NSW 2163","Commuter car park | Emergency help point | Kiss and ride stopping area | Payphone | Opal card top up or single trip ticket machine | Toilets | Wheelchair accessible car space","Hearing loop | Stairs | Tactile surfaces | This location is not wheelchair accessible | PA system for announcements","Train"
"Casino Station","24701","-28.860663","153.038275","13 22 32","10155062","Canterbury St, Casino NSW 2470","Commuter car park | Emergency help point | Payphone | Toilets | Wheelchair accessible car space | Wheelchair accessible toilet | Baby change table | Taxi rank","This location is wheelchair accessible | Wheelchair ramp boarding assistance | Stairs | PA system for announcements","Train, Coach, Taxi"
"Castle Hill Bus Interchange","2154190","-33.7321484","151.0064202","","10148755","Old Castle Hill Rd, Castle Hill NSW 2154","Toilets | Taxi rank","","Bus, Taxi"
"Casula Station","217030","-33.94981838","150.911946","02 9765 1655","10101290","Rushton Pl, Casula NSW 2170","Commuter car park | Emergency help point | No Opal card top up or single trip ticket sales | Wheelchair accessible car space","This location is wheelchair accessible | Lift | Wheelchair ramp boarding assistance | Stairs | Tactile surfaces | PA system for announcements","Train"
"Central Station","200060","-33.88388163","151.2058293","02 9379 1777","10101100","Eddy Ave, Haymarket NSW 2000","Emergency help point | Kiss and ride stopping area | Payphone | Opal card top up or single trip ticket machine | Toilets | Wheelchair accessible car space | Wheelchair accessible payphone | Wheelchair accessible toilet (MLAK) | Luggage storage | Baby change table | Free WiFi hotspot | Taxi rank","This location is wheelchair accessible | Escalator | Hearing loop | Lift | Wheelchair ramp boarding assistance | Stairs | Tactile surfaces | PA system for announcements","Train, Bus, Light rail, Taxi"
"Chatswood Station","206710","-33.79713406","151.1808207","02 9379 3311","10101117","Cnr Railway St & Victoria Ave, Chatswood NSW 2067","Bike lockers | Bike racks | Emergency help point | Kiss and ride stopping area | Payphone | Opal card top up or single trip ticket machine | Toilets | Wheelchair accessible payphone | Wheelchair accessible toilet (MLAK) | Baby change table | Taxi rank","This location is wheelchair accessible | Escalator | Hearing loop | Lift | Wheelchair ramp boarding assistance | Stairs | Tactile surfaces | PA system for announcements","Train, Bus, Taxi"
"Cheltenham Station","211920","-33.75586837","151.0788513","02 9847 8417","10101198","Sutherland Rd, Cheltenham NSW 2119","Bike racks | Commuter car park | Emergency help point | Kiss and ride stopping area | Payphone | Opal card top up or single trip ticket machine | Toilets | Wheelchair accessible car space","Hearing loop | Stairs | Tactile surfaces | This location is not wheelchair accessible | PA system for announcements","Train"
"Chester Hill Station","216220","-33.8835435","150.9994456","02 9379 7703","10101405","Chester Hill Rd, Chester Hill NSW 2162","Bike racks | Emergency help point | Kiss and ride stopping area | Payphone | Opal card top up or single trip ticket machine | Toilets | Taxi rank","Hearing loop | Stairs | This location is not wheelchair accessible | PA system for announcements","Train, Bus, Taxi"
"Chinderah Coach Stop (northbound)","24871","-28.233483","153.555962","","10150148","Oxley Park, Chindera Bay Dr, Chinderah NSW 2487","","","Coach, Bus"
"Chinderah Coach Stop (southbound)","24872","-28.232443","153.556665","","10158235","Chindera Bay Dr opp Hacienda Caravan Park, Chinderah NSW 2487","","","Coach, Bus"
"Chiswick Wharf","20462","-33.84554855","151.1417808","","10102012","Bortfield Dr, Chiswick NSW 2046","Bike racks | Emergency help point | No Opal card top up or single trip ticket sales | Toilets","This location is wheelchair accessible | Hearing loop | Stairs | PA system for announcements","Bus, Ferry"
"Circular Quay Station","200020","-33.86132358","151.2103898","02 9224 3553","10101103","Alfred St, Sydney NSW 2000","Emergency help point | Kiss and ride stopping area | Payphone | Opal card top up or single trip ticket machine | Toilets | Wheelchair accessible payphone | Wheelchair accessible toilet (MLAK) | Taxi rank","This location is wheelchair accessible | Escalator | Hearing loop | Lift | Wheelchair ramp boarding assistance | Stairs | Tactile surfaces | PA system for announcements","Train, Bus, Ferry, Taxi"
"Clarendon Station","275630","-33.60895245","150.7885628","02 9851 7249","10101243","Racecourse Rd, Clarendon NSW 2756","Commuter car park | Emergency help point | Kiss and ride stopping area | Payphone | No Opal card top up or single trip ticket sales | Toilets | Wheelchair accessible car space | Wheelchair accessible payphone | Wheelchair accessible toilet","Hearing loop | Level crossing | Wheelchair ramp boarding assistance | Stairs | This location is not wheelchair accessible | PA system for announcements","Train"
"Clyde Station","214230","-33.83628176","151.0174895","02 9848 9212","10101220","Berry St, Granville NSW 2142","Emergency help point | Kiss and ride stopping area | Payphone | Opal card top up or single trip ticket machine | Toilets","Hearing loop | Lift | Wheelchair ramp boarding assistance | Stairs | This location is not wheelchair accessible | PA system for announcements","Train"
"Coalcliff Station","250850","-34.24225043","150.9772427","02 4223 5569","10101359","Lawrence Hargrave Dr, Coalcliff NSW 2508","Commuter car park | Emergency help point | Payphone | No Opal card top up or single trip ticket sales | Toilets","Stairs | This location is not wheelchair accessible | PA system for announcements","Train, Bus"
"Cobar Coach Stop","28351","-31.496743","145.82744","","10150127","Service Station, Marshall St at Bathurst St, Cobar NSW 2835","","","Coach"
"Cobbadah Coach Stop","23471","-30.230845","150.577905","","10150016","Cobbadah Rd after Horton Rd, Cobbadah NSW 2347","","","Coach"
"Cobram Coach Stop","364410","-35.920883","145.645189","","10150302","Cobram Station, Punt Rd, Cobram VIC 3644","","","Coach"
"Cockatoo Island Wharf","20009","-33.84559502","151.1732389","","10102002","NSW","Bike racks | Opal card top up or single trip ticket machine","This location is wheelchair accessible","Ferry"
"Cockle Creek Station","228430","-32.94270992","151.6233813","02 4962 9437","10101155","Lake Rd, Boolaroo NSW 2284","Commuter car park | Emergency help point | No Opal card top up or single trip ticket sales","Stairs | This location is not wheelchair accessible | PA system for announcements | Short platforms, leave the train from the last 4 cars","Train, Bus"
"Coffs Harbour Station","24501","-30.3052","153.138175","13 22 32","10155060","Angus McLeod Pl, Coffs Harbour NSW 2450","Bike racks | Commuter car park | Payphone | Toilets | Wheelchair accessible car space | Wheelchair accessible toilet | Baby change table | Taxi rank","This location is wheelchair accessible | Wheelchair ramp boarding assistance | Stairs | PA system for announcements","Train, Taxi"
"Coledale Station","251530","-34.28938913","150.9433353","02 4223 5573","10101423","Cater St, Coledale NSW 2515","Commuter car park | Emergency help point | No Opal card top up or single trip ticket sales | Toilets | Taxi rank","Stairs | This location is not wheelchair accessible | PA system for announcements | Short platforms, leave the train from the last 6 cars","Train, Taxi"
"Collaroy B-Line","209722","-33.731811","151.301239","","10115360","Pittwater Rd, Collaroy NSW 2097","Bike racks | Departure indicator screen","This location is wheelchair accessible | Tactile surfaces","Bus"
"Como Station","222610","-34.00426616","151.0679988","02 9522 1244","10101343","Como Pde, Como NSW 2226","Bike lockers | Bike racks | Commuter car park | Emergency help point | Payphone | Opal card top up or single trip ticket machine | Toilets | Wheelchair accessible car space","Hearing loop | Stairs | Tactile surfaces | This location is not wheelchair accessible | PA system for announcements","Train"
"Concord West Station","213810","-33.84873998","151.0856262","02 9752 8421","10101204","Queen St, Concord West NSW 2138","Emergency help point | Kiss and ride stopping area | Payphone | Opal card top up or single trip ticket machine | Wheelchair accessible car space | Wheelchair accessible payphone | Wheelchair accessible toilet | Baby change table","This location is wheelchair accessible | Hearing loop | Lift | Stairs | PA system for announcements","Train"
"Condobolin Station","28772","-33.08391","147.153285","13 22 32","10155039","Denison St, Condobolin NSW 2877","","","Train"
"Condobolin Town Coach Stop","28773","-33.090038","147.147115","","10150280","Condobolin Bowling Club, William St, Condobolin NSW 2877","","","Coach"
"Coniston Station","250030","-34.43745489","150.8855292","02 4223 5529","10101373","Gladstone Ave, Coniston NSW 2500","Bike lockers | Bike racks | Commuter car park | Emergency help point | Payphone | No Opal card top up or single trip ticket sales | Wheelchair accessible car space | Wheelchair accessible payphone | Taxi rank","This location is not wheelchair accessible | PA system for announcements","Train, Bus, Taxi"
"Convention Centre Light Rail","2000262","-33.87262846","151.198123","","10101439","Darling Dr, Sydney NSW 2000","Emergency help point | Opal card top up or single trip ticket machine","This location is wheelchair accessible | Level crossing | Tactile surfaces | PA system for announcements","Light rail"
"Coolabah Coach Stop","28317","-31.027687","146.713126","","10150270","Gaffneys Store, Mitchell Hwy, Coolabah NSW 2831","","","Coach"
"Coolamon Coach Stop","27012","-34.815817","147.199995","","10150002","Coolamon Post Office, Cowabbie St, Coolamon NSW 2701","","","Coach"
"Coolamon Station","27011","-34.816045","147.201858","13 22 32","10155041","Wade St, Coolamon NSW 2701","","Wheelchair ramp boarding assistance","Train"
"Cooma Coach Stop","263027","-36.234146","149.126521","","10150008","Centennial Park, Bombala St, Cooma NSW 2630","","","Coach"
"Coonabarabran Coach Stop","23571","-31.279073","149.279362","","10150077","Coonabarabran Visitor Information Centre, Newell Hwy, Coonabarabran NSW 2357","","","Coach"
"Coonamble Coach Stop","28292","-30.955843","148.389184","","10150135","Castlereagh Hwy opp Namoi St, Coonamble NSW 2829","","","Coach"
"Cootamundra Station","25901","-34.641038","148.030649","13 22 32","10155050","Hovell St, Cootamundra NSW 2590","Commuter car park | Emergency help point | Payphone | Toilets | Wheelchair accessible car space | Wheelchair accessible toilet | Baby change table | Taxi rank","This location is wheelchair accessible | Wheelchair ramp boarding assistance | PA system for announcements","Train, Coach, Taxi"
"Corrimal Station","251820","-34.37572692","150.9049716","02 4223 5580","10101368","Murray Rd, Corrimal NSW 2518","Bike lockers | Bike racks | Commuter car park | Emergency help point | Kiss and ride stopping area | Payphone | No Opal card top up or single trip ticket sales | Wheelchair accessible car space | Wheelchair accessible payphone | Taxi rank","This location is wheelchair accessible | Level crossing | Tactile surfaces | PA system for announcements","Train, Taxi"
"Cowan Station","208120","-33.59310763","151.1717177","02 9847 8496","10101132","Pacific Hwy, Cowan NSW 2081","Commuter car park | Emergency help point | Payphone | No Opal card top up or single trip ticket sales | Toilets","This location is wheelchair accessible | Level crossing | Tactile surfaces | PA system for announcements | Short platforms, leave the train from the last 4 cars","Train"
"Cowra Coach Stop","27941","-33.834717","148.688777","","10150157","Macquarie St at Kendal St, Cowra NSW 2794","","","Coach, Bus"
"Cremorne Point Wharf","20901","-33.84787838","151.2308584","","10102025","Milson Rd, Cremorne Point NSW 2090","Emergency help point | Opal card top up or single trip ticket machine | Wheelchair accessible car space","This location is wheelchair accessible | Hearing loop | Tactile surfaces | PA system for announcements","Bus, Ferry"
"Cringila Station","250520","-34.46717554","150.8784228","02 4223 5694","10101375","Five Islands Rd, Port Kembla NSW 2505","Bike racks | Commuter car park | Emergency help point | Payphone | No Opal card top up or single trip ticket sales | Toilets","Stairs | This location is not wheelchair accessible | PA system for announcements","Train, Bus"
"Cronulla Station","223020","-34.05625171","151.1515424","02 9522 1245","10101351","Cronulla St, Cronulla NSW 2230","Bike racks | Commuter car park | Emergency help point | Kiss and ride stopping area | Payphone | Opal card top up or single trip ticket machine | Toilets | Wheelchair accessible car space | Wheelchair accessible payphone | Wheelchair accessible toilet | Baby change table | Taxi rank","This location is wheelchair accessible | Wheelchair ramp boarding assistance | Tactile surfaces | PA system for announcements","Train, Bus, Ferry, Taxi"
"Croydon Station","213210","-33.88323425","151.1154882","02 9752 8529","10101208","Meta St, Croydon NSW 2132","Emergency help point | Opal card top up or single trip ticket machine | Toilets | Wheelchair accessible toilet | Baby change table | Kiss and ride stopping area | Bike racks","Stairs | Tactile surfaces | This location is wheelchair accessible | PA system for announcements | Lift | Hearing loop | Wheelchair ramp boarding assistance","Train"
"Culcairn Station","26601","-35.666107","147.038128","13 22 32","10155032","Balfour St, Culcairn NSW 2660","Emergency help point | Toilets","This location is wheelchair accessible | Wheelchair ramp boarding assistance | PA system for announcements | Short platforms, please see the train guard","Train"
"Dapto Station","253020","-34.49209044","150.7923283","02 4223 5544","10101425","Station St, Dapto NSW 2530","Bike lockers | Bike racks | Commuter car park | Emergency help point | Kiss and ride stopping area | Payphone | Opal card top up or single trip ticket machine | Toilets | Wheelchair accessible car space | Wheelchair accessible toilet | Taxi rank","Hearing loop | Level crossing | Tactile surfaces | This location is not wheelchair accessible | PA system for announcements","Train, Bus, Taxi"
"Darling Harbour Wharf","2000180","-33.86687618","151.2008261","","10102052","Lime St, Sydney NSW 2000","Emergency help point | Opal card top up machine | No Opal card top up or single trip ticket sales | Taxi rank","This location is wheelchair accessible | Hearing loop | PA system for announcements","Bus, Ferry, Taxi"
"Darling Point Wharf","20271","-33.8664518","151.2394906","","10102034","Darling Point Rd, Darling Point NSW 2027","Emergency help point | No Opal card top up or single trip ticket sales","Hearing loop | Stairs | This location is not wheelchair accessible | PA system for announcements","Ferry"
"Darnick Station","28781","-32.851214","143.624896","13 22 32","10155004","Ivanhoe Menindee Rd, Ivanhoe NSW 2878","","Stairs | This location is not wheelchair accessible | Short platforms, please see the train guard","Train"
"Dee Why B-Line","209924","-33.752971","151.286433","","10119206","Pittwater Rd, Dee Why NSW 2099","Commuter car park | Departure indicator screen | Wheelchair accessible car space","This location is wheelchair accessible | Tactile surfaces","Bus, Taxi"
"Dee Why Bus Interchange","209913","-33.75265204","151.2863953","","10115434","Pittwater Rd, Dee Why NSW 2099","Bike racks | Kiss and ride stopping area | Toilets | Taxi rank","","Bus, Taxi"
"Deniliquin Coach Stop","27101","-35.52882","144.96153","","10150040","Gorman Park, Whitelock St, Deniliquin NSW 2710","","","Coach, Bus"
"Denistone Station","211410","-33.79990618","151.0875503","02 9752 8461","10101200","West Pde, Denistone NSW 2114","Commuter car park | Emergency help point | Payphone | Opal card top up or single trip ticket machine | Toilets","Stairs | Tactile surfaces | This location is not wheelchair accessible | PA system for announcements","Train"
"Domestic Airport Station","202020","-33.93365963","151.1807857","02 8337 8450","10101331","Keith Smith Ave, Domestic Ariport, Mascot NSW 2020","Emergency help point | Kiss and ride stopping area | Payphone | Opal card top up or single trip ticket machine | Toilets | Wheelchair accessible car space | Wheelchair accessible payphone | Wheelchair accessible toilet | Baby change table | Taxi rank","This location is wheelchair accessible | Escalator | Hearing loop | Lift | Wheelchair ramp boarding assistance | Stairs | Tactile surfaces | PA system for announcements","Train, Bus, Taxi"
"Doonside Station","276710","-33.76398502","150.8683521","02 9851 7218","10101246","Doonside Cres, Doonside NSW 2767","Bike racks | Commuter car park | Emergency help point | Kiss and ride stopping area | Payphone | Opal card top up or single trip ticket machine | Toilets | Baby change table | Taxi rank","Hearing loop | Stairs | Tactile surfaces | This location is not wheelchair accessible | PA system for announcements","Train, Bus, Taxi"
"Dora Creek Station","226420","-33.08318747","151.5011621","02 4349 9241","10101149","Wamsley St, Dora Creek NSW 2264","Commuter car park | Emergency help point | No Opal card top up or single trip ticket sales","Stairs | This location is not wheelchair accessible | PA system for announcements | Short platforms, leave the train from the last 6 cars","Train, Bus"
"Double Bay Wharf","20281","-33.87334922","151.2425813","","10102003","Bay St, Double Bay NSW 2028","Bike racks | Emergency help point | Opal card top up or single trip ticket machine","Hearing loop | This location is not wheelchair accessible | PA system for announcements","Ferry"
"Douglas Park Station","256910","-34.18322665","150.7099378","02 4677 1402","10101300","Camden Rd, Douglas Park NSW 2569","Commuter car park | Emergency help point | Payphone | No Opal card top up or single trip ticket sales","Level crossing | This location is not wheelchair accessible | PA system for announcements | Short platforms, leave the train from the last 2 cars","Train"
"Drummoyne Wharf","20471","-33.84548995","151.1570955","","10102013","Wolseley St, Drummoyne NSW 2047","Emergency help point | No Opal card top up or single trip ticket sales","This location is wheelchair accessible | Hearing loop | Tactile surfaces | PA system for announcements","Ferry"
"Dubbo Station","28301","-32.245012","148.608182","13 22 32","10155006","Talbragar St, Dubbo NSW 2830","Commuter car park | Emergency help point | Payphone | Toilets | Wheelchair accessible car space | Baby change table | Taxi rank","This location is wheelchair accessible | Wheelchair ramp boarding assistance | PA system for announcements","Train, Coach, Taxi"
"Dulwich Grove Light Rail","220365","-33.9050373","151.1390126","","10101461","New Canternury Rd, Dulwich Hill NSW 2203","Bike racks | Emergency help point | Opal card top up or single trip ticket machine","This location is wheelchair accessible | Hearing loop | Level crossing | Lift | Stairs | Tactile surfaces | PA system for announcements","Light rail"
"Dulwich Hill Light Rail","220363","-33.91030497","151.1400854","","10101462","Bedford Cres, Dulwich Hill NSW 2203","Bike racks | Emergency help point | Opal card top up or single trip ticket machine","This location is wheelchair accessible | Hearing loop | Level crossing | Lift | Stairs | Tactile surfaces | PA system for announcements","Train, Light rail"
"Dulwich Hill Station","220310","-33.91110223","151.1409894","02 9563 7595","10101393","Wardell Rd, Dulwich Hill NSW 2203","Commuter car park | Emergency help point | Kiss and ride stopping area | Payphone | Opal card top up or single trip ticket machine | Toilets | Wheelchair accessible car space | Wheelchair accessible payphone","Stairs | This location is not wheelchair accessible | PA system for announcements","Train, Bus, Light rail"
"Dundas Station","211720","-33.80389397","151.0331967","02 9637 1520","10101224","Station St, Dundas NSW 2117","Commuter car park | Emergency help point | Kiss and ride stopping area | Payphone | No Opal card top up or single trip ticket sales | Wheelchair accessible car space","This location is wheelchair accessible | Hearing loop | Level crossing | Tactile surfaces | PA system for announcements","Train, Bus"
"Dungog Station","242010","-32.4022901","151.7595395","02 4962 9512","10101186","Brown St, Dungog NSW 2420","Commuter car park | Emergency help point | Kiss and ride stopping area | Payphone | No Opal card top up or single trip ticket sales | Toilets","This location is wheelchair accessible | Level crossing | Wheelchair ramp boarding assistance | Stairs | PA system for announcements","Train, Bus"
"East Hills Station","221320","-33.96160677","150.9848973","02 9563 7774","10101419","Park Rd, East Hills NSW 2213","Bike lockers | Bike racks | Commuter car park | Emergency help point | Kiss and ride stopping area | Payphone | Opal card top up or single trip ticket machine | Toilets | Wheelchair accessible car space","Hearing loop | Wheelchair ramp boarding assistance | Stairs | Tactile surfaces | This location is not wheelchair accessible | PA system for announcements","Train, Bus"
"East Maitland Station","232330","-32.74487523","151.5874213","02 4985 7449","10101176","Melbourne St, East Maitland NSW 2323","Commuter car park | Emergency help point | No Opal card top up or single trip ticket sales | Toilets","Stairs | This location is not wheelchair accessible | PA system for announcements","Train"
"East Richmond Station","275310","-33.60179614","150.759234","02 9851 7248","10101244","Bourke St, Richmond NSW 2753","Bike racks | Emergency help point | Kiss and ride stopping area | No Opal card top up or single trip ticket sales | Toilets | Wheelchair accessible toilet | Baby change table","This location is wheelchair accessible | Hearing loop | Level crossing | Wheelchair ramp boarding assistance | Tactile surfaces | PA system for announcements","Train, Bus"
"Eastwood Station","212210","-33.7900214","151.0822335","02 9752 8493","10101199","West Pde, Eastwood NSW 2122","Bike racks | Commuter car park | Emergency help point | Kiss and ride stopping area | Payphone | Opal card top up or single trip ticket machine | Toilets | Wheelchair accessible car space | Wheelchair accessible payphone | Wheelchair accessible toilet | Baby change table | Taxi rank","This location is wheelchair accessible | Hearing loop | Lift | Wheelchair ramp boarding assistance | Stairs | Tactile surfaces | PA system for announcements","Train, Bus, Taxi"
"Echuca Coach Stop","35641","-36.124102","144.751933","","10150248","Echuca Moama Visitor Information Centre, Heygarth St, Echuca VIC 3564","","","Coach"
"Eden Coach Stop","25511","-37.065712","149.906725","","10150351","Twofold Arcade, Imlay St, Eden NSW 2551","","","Coach, Bus"
"Edgecliff Station","202710","-33.87925148","151.2361614","02 9379 4652","10101108","New South Head Rd, Edgecliff NSW 2027","Emergency help point | Kiss and ride stopping area | Payphone | Opal card top up or single trip ticket machine | Toilets | Wheelchair accessible toilet (MLAK) | Baby change table | Taxi rank","Escalator | Hearing loop | Wheelchair ramp boarding assistance | Stairs | This location is not wheelchair accessible | PA system for announcements","Train, Bus, Taxi"
"Edmondson Park Station","217426","-33.9693","150.8587","02 9765 1451","10101447","Soldiers Pde, Edmondson Park NSW 2174","Bike racks | Commuter car park | Emergency help point | Kiss and ride stopping area | Payphone | Opal card top up or single trip ticket machine | Toilets | Wheelchair accessible car space | Wheelchair accessible toilet | Baby change table | Taxi rank","This location is wheelchair accessible | Hearing loop | Lift | Wheelchair ramp boarding assistance | Stairs | Tactile surfaces | PA system for announcements","Train, Bus, Taxi"
"Emmdale Coach Stop","28361","-31.653308","144.268255","","10150186","Emmdale Roadhouse, Barrier Highway, Wilcannia NSW 2836","","","Coach"
"Emu Plains Station","275020","-33.74556778","150.6722867","02 4735 2506","10101253","Station St, Emu Plains NSW 2750","Bike lockers | Bike racks | Commuter car park | Emergency help point | Kiss and ride stopping area | Payphone | Opal card top up or single trip ticket machine | Toilets | Wheelchair accessible car space | Wheelchair accessible toilet | Baby change table","This location is wheelchair accessible | Hearing loop | Lift | Wheelchair ramp boarding assistance | Stairs | Tactile surfaces | PA system for announcements | Short platforms, leave the train from the last 6 cars","Train, Bus"
"Engadine Station","223310","-34.06789901","151.0146529","02 9522 1224","10101353","Princes Hwy, Engadine NSW 2233","Bike lockers | Bike racks | Commuter car park | Emergency help point | Kiss and ride stopping area | Payphone | Opal card top up or single trip ticket machine | Toilets | Wheelchair accessible car space | Wheelchair accessible payphone | Wheelchair accessible toilet | Taxi rank","This location is wheelchair accessible | Hearing loop | Lift | Wheelchair ramp boarding assistance | Stairs | Tactile surfaces | PA system for announcements","Train, Bus, Taxi"
"Epping Station","212110","-33.77284145","151.0821766","02 8878 4100","10101429","Beecroft Rd, Epping NSW 2121","Bike lockers | Bike racks | Commuter car park | Emergency help point | Kiss and ride stopping area | Payphone | Opal card top up or single trip ticket machine | Toilets | Wheelchair accessible car space | Wheelchair accessible payphone | Wheelchair accessible toilet (MLAK) | Baby change table | Taxi rank","This location is wheelchair accessible | Escalator | Hearing loop | Lift | Wheelchair ramp boarding assistance | Stairs | Tactile surfaces | PA system for announcements","Train, Bus, Taxi"
"Erskineville Station","204310","-33.9008581","151.1853076","02 9563 7579","10101324","Swanson St, Erskineville NSW 2043","Emergency help point | Kiss and ride stopping area | Payphone | Opal card top up or single trip ticket machine | Toilets | Wheelchair accessible toilet | Baby change table","Hearing loop | Stairs | This location is not wheelchair accessible | PA system for announcements","Train, Bus"
"Euabalong Coach Stop","28775","-33.108964","146.473193","","10150287","Lachlan St opp Royal Hotel, Euabalong NSW 2877","","","Coach"
"Euabalong West Coach Stop","28777","-33.055715","146.394249","","10150297","Uabba St at Murrin St, Euabalong West NSW 2877","","","Coach"
"Euabalong West Station","28771","-33.0548","146.3909","13 22 32","10155018","Uabba St, Euabalong West NSW 2877","","Stairs | This location is not wheelchair accessible | Short platforms, please see the train guard","Train"
"Eugowra Coach Stop","28061","-33.427064","148.369866","","10150251","Broad St at Myall St, Eugowra NSW 2806","","","Coach"
"Eungai Station","24411","-30.8497","152.9001","13 22 32","10155049","South Bank Rd, Eungai Rail NSW 2441","","This location is wheelchair accessible | Wheelchair ramp boarding assistance | PA system for announcements | Short platforms, please see the train guard","Train"
"Euston Coach Stop","27371","-34.577328","142.744641","","10150246","Murray Tce opp Euston General Store, Euston NSW 2737","","","Coach"
"Evans Head Coach Stop","24731","-29.118619","153.431145","","10150359","Evans Head Library, Woodburn St, Evans Head NSW 2473","","","Coach, Bus"
"Exeter Station","257930","-34.61377487","150.3173447","02 4868 1115","10101309","Middle Rd, Exeter NSW 2579","Emergency help point | No Opal card top up or single trip ticket sales | Toilets | Wheelchair accessible car space","Level crossing | This location is not wheelchair accessible | PA system for announcements | Short platforms, leave the train from the last 2 cars","Train, Bus"
"Exhibition Centre Light Rail","2000264","-33.87719386","151.1997027","","10101440","Darling Dr, Sydney NSW 2000","Emergency help point | No Opal card top up or single trip ticket sales","This location is wheelchair accessible | Level crossing | Stairs | Tactile surfaces | PA system for announcements","Light rail"
"Fairfield Station","216510","-33.87233065","150.9570711","02 9765 1641","10101285","The Crescent, Fairfield NSW 2165","Bike racks | Commuter car park | Emergency help point | Kiss and ride stopping area | Payphone | Opal card top up or single trip ticket machine | Toilets | Wheelchair accessible toilet | Taxi rank","This location is wheelchair accessible | Hearing loop | Lift | Wheelchair ramp boarding assistance | Stairs | Tactile surfaces | PA system for announcements","Train, Bus, Taxi"
"Fairy Meadow Station","251910","-34.39583411","150.8961702","02 4223 5852","10101370","Elliots Rd, Fairy Meadow NSW 2519","Bike lockers | Bike racks | Commuter car park | Emergency help point | Kiss and ride stopping area | Payphone | No Opal card top up or single trip ticket sales | Toilets | Wheelchair accessible car space | Taxi rank","Level crossing | Stairs | Tactile surfaces | This location is not wheelchair accessible | PA system for announcements","Train, Taxi"
"Fassifern Station","228330","-32.9857882","151.5812509","02 4985 7209","10101151","Tucker Close, Fassifern NSW 2283","Bike racks | Commuter car park | Emergency help point | Kiss and ride stopping area | Payphone | Opal card top up or single trip ticket machine | Toilets | Wheelchair accessible car space | Wheelchair accessible payphone","This location is wheelchair accessible | Hearing loop | Lift | Stairs | Tactile surfaces | PA system for announcements","Train, Bus"
"Faulconbridge Station","277610","-33.69648835","150.5350339","02 4780 3906","10101260","Great Western Hwy, Faulconbridge NSW 2776","Commuter car park | Emergency help point | Kiss and ride stopping area | No Opal card top up or single trip ticket sales | Toilets | Wheelchair accessible car space","Hearing loop | Stairs | This location is not wheelchair accessible | PA system for announcements | Short platforms, leave the train from the last 6 cars","Train, Bus"
"Fish Market Light Rail","200937","-33.87091734","151.192293","","10101435","Miller St, Pyrmont NSW 2009","Emergency help point | Opal card top up or single trip ticket machine","This location is wheelchair accessible | Level crossing | Lift | Stairs | Tactile surfaces | PA system for announcements","Light rail"
"Flemington Station","214020","-33.86482229","151.0697665","02 9752 8477","10101217","The Crescent, Homebush West NSW 2140","Emergency help point | Kiss and ride stopping area | Payphone | Opal card top up or single trip ticket machine | Toilets | Taxi rank","Hearing loop | Stairs | This location is not wheelchair accessible | PA system for announcements","Train, Bus, Taxi"
"Forbes Coach Stop","28711","-33.379132","148.01189","","10150326","Forbes Visitor Information Centre, Union St, Forbes NSW 2871","","","Coach"
"Forster Coach Stop","24281","-32.18311","152.513002","","10150029","Forster Tuncurry Visitor Information Centre, Little St, Forster NSW 2428","","","Coach"
"Forster Keys Coach Stop","24282","-32.212959","152.525439","","10150028","The Lakes Way before Cape Hawk Dr, Forster NSW 2428","","","Coach, Bus"
"Garden Island Wharf","20007","-33.85813587","151.2299226","","10102001","Potts Point NSW 2011","No Opal card top up or single trip ticket sales","This location is wheelchair accessible","Ferry"
"Gerringong Station","253420","-34.74488594","150.8175078","02 4234 1422","10101387","Grey St, Gerringong NSW 2534","Bike racks | Commuter car park | Emergency help point | Payphone | No Opal card top up or single trip ticket sales | Toilets | Wheelchair accessible car space | Wheelchair accessible payphone | Taxi rank","This location is wheelchair accessible | Tactile surfaces | PA system for announcements","Train, Taxi"
"Geurie Station","28311","-32.398277","148.830581","13 22 32","10155013","Mitchell Hwy, Geurie NSW 2818","Emergency help point","Wheelchair ramp boarding assistance | This location is not wheelchair accessible | PA system for announcements | Short platforms, please see the train guard","Train, Coach, Bus"
"Gilgandra Coach Stop","28271","-31.711945","148.665964","","10150116","Warren St before Morris St, Gilgandra NSW 2827","","","Coach"
"Girilambone Coach Stop","28318","-31.711945","148.665964","","10150263","Mitchell Hwy opposite Girilambone Country Store, Girilambone NSW 2831","","","Coach"
"Glebe Light Rail Light Rail","203781","-33.87715587","151.1873612","","10101433","Lower Avon St, Glebe NSW 2037","Emergency help point | Opal card top up or single trip ticket machine","This location is wheelchair accessible | Level crossing | Stairs | Tactile surfaces | PA system for announcements","Light rail"
"Glen Innes Coach Stop","23701","-29.7383","151.7377","","10150315","Glen Innes Visitor Information Centre, 152 Church St, Glen Innes NSW 2370","","","Coach"
"Glenbrook Station","277310","-33.76900437","150.6208342","02 4739 1753","10101255","Burfitt Pde, Glenbrook NSW 2773","Bike lockers | Bike racks | Commuter car park | Emergency help point | Kiss and ride stopping area | Payphone | Opal card top up or single trip ticket machine | Toilets","Hearing loop | Stairs | This location is not wheelchair accessible | PA system for announcements | Short platforms, leave the train from the last 6 cars","Train, Bus"
"Glenfield Station","216710","-33.97236827","150.8928072","02 9765 1162","10101291","Railway Pde, Glenfield NSW 2167","Bike lockers | Bike racks | Commuter car park | Emergency help point | Kiss and ride stopping area | Payphone | Opal card top up or single trip ticket machine | Toilets | Wheelchair accessible car space | Wheelchair accessible payphone | Wheelchair accessible toilet | Baby change table | Taxi rank","This location is wheelchair accessible | Hearing loop | Lift | Wheelchair ramp boarding assistance | Stairs | Tactile surfaces | PA system for announcements","Train, Bus, Taxi"
"Gloucester Station","24221","-32.004766","151.966735","13 22 32","10155028","Bucketts Way, Gloucester NSW 2422","Commuter car park | Emergency help point | Payphone | Toilets | Wheelchair accessible toilet | Baby change table","Wheelchair ramp boarding assistance | This location is not wheelchair accessible | PA system for announcements","Train"
"Good Forest Coach Stop","2790130","-33.615754","150.112188","","10150011","Jenolan Caves Rd at Lowther Siding Rd, Lowther NSW 2790","","","Coach"
"Gordon Station","207210","-33.75600864","151.154528","02 9847 8458","10101121","St Johns Ave, Gordon NSW 2072","Bike racks | Commuter car park | Emergency help point | Kiss and ride stopping area | Payphone | Opal card top up or single trip ticket machine | Toilets | Wheelchair accessible car space | Wheelchair accessible payphone | Wheelchair accessible toilet | Taxi rank","This location is wheelchair accessible | Hearing loop | Lift | Wheelchair ramp boarding assistance | Stairs | Tactile surfaces | PA system for announcements","Train, Bus, Taxi"
"Gosford Station","225040","-33.42388261","151.3417109","02 4349 9260","10101139","Mann St, Gosford NSW 2250","Bike lockers | Bike racks | Commuter car park | Emergency help point | Kiss and ride stopping area | Payphone | Opal card top up or single trip ticket machine | Toilets | Wheelchair accessible car space | Wheelchair accessible payphone | Wheelchair accessible toilet | Baby change table | Taxi rank","This location is wheelchair accessible | Hearing loop | Lift | Stairs | Tactile surfaces | PA system for announcements","Train, Bus, Taxi"
"Goulburn Station","258010","-34.75846191","149.7192744","02 4828 5816","10101315","Sloane St, Goulburn NSW 2580","Commuter car park | Emergency help point | Kiss and ride stopping area | Payphone | No Opal card top up or single trip ticket sales | Toilets | Wheelchair accessible toilet | Taxi rank","Stairs | This location is not wheelchair accessible | PA system for announcements","Train, Bus, Taxi"
"Grafton Station","24601","-29.703905","152.941692","13 22 32","10155063","Crisp Ave, South Grafton NSW 2460","Commuter car park | Payphone | Toilets | Wheelchair accessible car space | Wheelchair accessible toilet | Baby change table | Taxi rank","This location is wheelchair accessible | Wheelchair ramp boarding assistance | Stairs | PA system for announcements","Train, Coach, Bus, Taxi"
"Granville Station","214240","-33.83317598","151.0124947","02 9848 9388","10101227","Bridge St, Granville NSW 2142","Bike lockers | Bike racks | Commuter car park | Emergency help point | Kiss and ride stopping area | Payphone | Opal card top up or single trip ticket machine | Toilets | Wheelchair accessible car space | Wheelchair accessible payphone | Wheelchair accessible toilet | Baby change table | Taxi rank","This location is wheelchair accessible | Hearing loop | Lift | Wheelchair ramp boarding assistance | Stairs | Tactile surfaces | PA system for announcements","Train, Bus, Taxi"
"Gravesend Coach Stop","24011","-29.58381","150.338048","","10150278","Gravesend General Store, Railway Pde, Gravesend NSW 2401","","","Coach"
"Green Square Station","201710","-33.90606259","151.2024745","02 8337 8430","10101329","Cnr Botany Rd & O'Riordan St, Alexandria NSW 2015","Emergency help point | Kiss and ride stopping area | Payphone | Opal card top up or single trip ticket machine | Toilets | Wheelchair accessible payphone | Wheelchair accessible toilet | Baby change table | Taxi rank","This location is wheelchair accessible | Escalator | Hearing loop | Lift | Wheelchair ramp boarding assistance | Stairs | Tactile surfaces | PA system for announcements","Train, Bus, Taxi"
"Greenwich Point Wharf","20651","-33.84209993","151.1808023","","10102019","Lower Serpentine Rd, Greenwich NSW 2065","Emergency help point | No Opal card top up or single trip ticket sales","Hearing loop | Stairs | This location is not wheelchair accessible | PA system for announcements","Bus, Ferry"
"Grenfell Coach Stop","28101","-33.893479","148.160537","","10150036","Grenfell Motel, Main St, Grenfell NSW 2810","","","Coach"
"Grenfell Coach Stop","28101","-33.893479","148.160537","","10150036","Grenfell Motel, Main St, Grenfell NSW 2810","","","Coach"
"Greta Station","233410","-32.68662215","151.3840895","02 6543 1018","10101188","Nelson St, Greta NSW 2334","Emergency help point | No Opal card top up or single trip ticket sales","Stairs | This location is not wheelchair accessible | PA system for announcements | Short platforms, leave the train from the middle doors","Train"
"Griffith Station","26801","-34.28682","146.047734","13 22 32","10155011","Railway St, Griffith NSW 2680","Toilets | Wheelchair accessible car space | Wheelchair accessible toilet","This location is wheelchair accessible | Wheelchair ramp boarding assistance | Stairs","Train"
"Griffith Town Coach Stop","268059","-34.289098","146.050858","","10162156","Griffith Visitor Information Centre, 1 Jondaryan Ave, Griffith NSW 2680","","","Coach"
"Guildford Station","216110","-33.8545057","150.984361","02 9848 9287","10101283","Military Rd, Guildford NSW 2161","Bike racks | Commuter car park | Emergency help point | Kiss and ride stopping area | Opal card top up or single trip ticket machine | Toilets | Wheelchair accessible car space | Wheelchair accessible toilet | Taxi rank","This location is wheelchair accessible | Hearing loop | Lift | Wheelchair ramp boarding assistance | Stairs | Tactile surfaces | PA system for announcements","Train, Bus, Taxi"
"Gundagai Coach Stop","27222","-35.06297","148.101696","","10150255","Gundagai Visitor Information Centre, Sheridan St, Gundagai NSW 2722","","","Coach"
"Gunnedah Station","23801","-30.979376","150.247996","13 22 32","10155055","Railway Ave, Gunnedah NSW 2380","Commuter car park | Emergency help point | Toilets | Wheelchair accessible car space | Baby change table | Taxi rank","This location is wheelchair accessible | Wheelchair ramp boarding assistance | PA system for announcements","Train, Taxi"
"Gunning Station","25811","-34.779691","149.261031","13 22 32","10155030","Grovenor St, Gunning NSW 2581","Commuter car park | Toilets","This location is wheelchair accessible | Level crossing | Wheelchair ramp boarding assistance | PA system for announcements | Short platforms, please see the train guard","Train"
"Gymea Station","222710","-34.03489294","151.0854766","02 9522 1288","10101347","Gymea Bay Rd, Gymea NSW 2227","Commuter car park | Emergency help point | Kiss and ride stopping area | Payphone | Opal card top up or single trip ticket machine | Toilets | Wheelchair accessible car space | Wheelchair accessible payphone | Wheelchair accessible toilet | Taxi rank","This location is wheelchair accessible | Hearing loop | Lift | Stairs | Tactile surfaces | PA system for announcements","Train, Bus, Taxi"
"Hamilton Station","230310","-32.91871348","151.7488722","02 4962 9365","10101161","Beaumont St, Hamilton NSW 2303","Emergency help point | Kiss and ride stopping area | Payphone | Opal card top up or single trip ticket machine | Toilets | Taxi rank","This location is wheelchair accessible | Hearing loop | Level crossing | Stairs | Tactile surfaces | PA system for announcements | Short platforms, leave the train from the last 6 cars","Train, Bus, Taxi"
"Harden Station","25871","-34.553349","148.371322","13 22 32","10155003","Station St, Harden NSW 2587","Emergency help point | Toilets","Wheelchair ramp boarding assistance | PA system for announcements","Train"
"Harris Park Station","215010","-33.82326002","151.0076387","02 9848 9386","10101228","Station St, Harris Park NSW 2150","Emergency help point | Kiss and ride stopping area | Payphone | Opal card top up or single trip ticket machine | Toilets | Wheelchair accessible toilet | Baby change table","Hearing loop | Stairs | This location is not wheelchair accessible | PA system for announcements","Train"
"Hawkesbury River Station","208310","-33.54678835","151.2265104","02 9985 7224","10101133","Dangar Rd, Brooklyn NSW 2083","Emergency help point | Kiss and ride stopping area | No Opal card top up or single trip ticket sales | Toilets","Hearing loop | Stairs | Tactile surfaces | This location is not wheelchair accessible | PA system for announcements","Train, Bus, Ferry"
"Hawks Nest Coach Stop","2324153","-32.672705","152.177658","","10150119","Hawks Nest Community Centre, Booner St, Hawks Nest NSW 2324","","","Coach"
"Hawthorne Light Rail","2040111","-33.87972548","151.1471308","","10101455","Darley Rd, Leichhardt NSW 2040","Bike racks | Emergency help point | Kiss and ride stopping area | Opal card top up or single trip ticket machine","This location is wheelchair accessible | Hearing loop | Level crossing | Tactile surfaces | PA system for announcements","Light rail"
"Hay Coach Stop","27111","-34.5205","144.837548","","10150096","Moama St at Archer St, Hay South NSW 2711","","","Coach"
"Hazelbrook Station","277910","-33.72397351","150.4546038","02 4780 3913","10101263","Railway Pde, Hazelbrook NSW 2779","Bike lockers | Commuter car park | Emergency help point | Payphone | Opal card top up or single trip ticket machine | Toilets | Wheelchair accessible car space | Wheelchair accessible payphone | Taxi rank","Hearing loop | Stairs | This location is not wheelchair accessible | PA system for announcements | Short platforms, leave the train from the last 6 cars","Train, Bus, Taxi"
"Heathcote Station","223320","-34.08823661","151.0080024","02 9522 1221","10101354","Princes Hwy, Heathcote NSW 2233","Bike racks | Commuter car park | Emergency help point | Kiss and ride stopping area | Payphone | Opal card top up or single trip ticket machine | Toilets | Wheelchair accessible car space | Wheelchair accessible payphone | Taxi rank","Hearing loop | Wheelchair ramp boarding assistance | Tactile surfaces | This location is not wheelchair accessible | PA system for announcements","Train, Taxi"
"Helensburgh Station","250810","-34.17686988","150.9948249","02 4223 5864","10101356","Wilsons Creek Rd, Helensburgh NSW 2508","Bike lockers | Bike racks | Commuter car park | Emergency help point | Kiss and ride stopping area | Payphone | Opal card top up or single trip ticket machine | Toilets | Wheelchair accessible car space | Wheelchair accessible toilet | Baby change table | Taxi rank","This location is wheelchair accessible | Hearing loop | Lift | Stairs | Tactile surfaces | PA system for announcements | Short platforms, leave the train from the last 6 cars","Train, Bus, Taxi"
"Henty Station","26581","-35.517886","147.035371","13 22 32","10155029","Olympic Hwy, Henty NSW 2658","Emergency help point | Toilets","Wheelchair ramp boarding assistance | Stairs | This location is not wheelchair accessible | PA system for announcements | Short platforms, please see the train guard","Train"
"Hexham Station","232210","-32.82947029","151.6844171","02 4962 9944","10101170","Pacific Hwy, Hexham NSW 2322","Commuter car park | Emergency help point | No Opal card top up or single trip ticket sales","Stairs | This location is not wheelchair accessible | PA system for announcements | Short platforms, leave the train from the middle doors","Train"
"High Street Station","232010","-32.741449","151.5636893","02 4933 7902","10101177","High St, Maitland NSW 2320","Commuter car park | Emergency help point | Kiss and ride stopping area | No Opal card top up or single trip ticket sales","Stairs | This location is not wheelchair accessible | PA system for announcements","Train, Bus"
"Hilldale Station","242040","-32.50450378","151.6497678","02 6543 1018","10101183","Paterson Rd, Hilldale NSW 2420","Commuter car park | Emergency help point | No Opal card top up or single trip ticket sales","This location is not wheelchair accessible | PA system for announcements | Short platforms, leave the train from the middle doors","Train"
"Holsworthy Station","217310","-33.96320957","150.9568946","02 9765 1166","10101420","Macarthur Dr, Holsworthy NSW 2173","Bike lockers | Bike racks | Commuter car park | Emergency help point | Kiss and ride stopping area | Payphone | Opal card top up or single trip ticket machine | Toilets | Wheelchair accessible car space | Wheelchair accessible toilet | Taxi rank","This location is wheelchair accessible | Hearing loop | Lift | Wheelchair ramp boarding assistance | Stairs | Tactile surfaces | PA system for announcements","Train, Bus, Taxi"
"Homebush Station","214010","-33.86673988","151.0864413","02 9752 8882","10101216","The Crescent, Homebush NSW 2140","Emergency help point | Kiss and ride stopping area | Payphone | Opal card top up or single trip ticket machine | Toilets | Wheelchair accessible car space | Taxi rank","Hearing loop | Stairs | This location is not wheelchair accessible | PA system for announcements","Train, Bus, Taxi"
"Hornsby Station","207720","-33.70280124","151.098494","02 9847 8428","10101127","Station St, Hornsby NSW 2077","Bike lockers | Bike racks | Commuter car park | Emergency help point | Kiss and ride stopping area | Payphone | Opal card top up or single trip ticket machine | Toilets | Wheelchair accessible car space | Wheelchair accessible toilet (MLAK) | Taxi rank","This location is wheelchair accessible | Hearing loop | Lift | Wheelchair ramp boarding assistance | Stairs | Tactile surfaces | PA system for announcements","Train, Bus, Taxi"
"Huntleys Point Wharf","211158","-33.84192145","151.1422376","","10102036","Huntleys Point Rd, Huntleys Point NSW 2111","Bike racks | Emergency help point | No Opal card top up or single trip ticket sales","Hearing loop | Stairs | Tactile surfaces | This location is not wheelchair accessible | PA system for announcements","Ferry"
"Hurlstone Park Station","219310","-33.91042225","151.1320925","02 9563 7544","10101394","Floss St, Hurlstone Park NSW 2193","Commuter car park | Emergency help point | Kiss and ride stopping area | Payphone | Opal card top up or single trip ticket machine | Toilets | Wheelchair accessible car space","Hearing loop | Stairs | This location is not wheelchair accessible | PA system for announcements","Train, Bus"
"Hurstville Station","222010","-33.96745356","151.1027571","02 9563 7568","10101339","Ormonde Pde, Hurstville NSW 2220","Bike racks | Emergency help point | Kiss and ride stopping area | Payphone | Opal card top up or single trip ticket machine | Toilets | Wheelchair accessible toilet | Taxi rank","This location is wheelchair accessible | Escalator | Hearing loop | Lift | Wheelchair ramp boarding assistance | Stairs | Tactile surfaces | PA system for announcements","Train, Bus, Taxi"
"Iluka Coach Stop","246621","-29.408259","153.351653","","10150273","Iluka Post Office, Charles St, Iluka NSW 2466","","","Coach"
"Ingleburn Station","256510","-33.9970797","150.8649205","02 4629 0845","10101293","Stanley Rd, Ingleburn NSW 2565","Bike lockers | Bike racks | Commuter car park | Emergency help point | Kiss and ride stopping area | Payphone | Opal card top up or single trip ticket machine | Toilets | Wheelchair accessible car space | Wheelchair accessible toilet | Taxi rank","This location is wheelchair accessible | Hearing loop | Lift | Wheelchair ramp boarding assistance | Stairs | Tactile surfaces | PA system for announcements","Train, Bus, Taxi"
"International Airport Station","202030","-33.93498823","151.1658913","02 8337 8460","10101332","Qantas Dr, International Airport, Mascot NSW 2020","Emergency help point | Kiss and ride stopping area | Payphone | Opal card top up or single trip ticket machine | Toilets | Wheelchair accessible car space | Wheelchair accessible payphone | Wheelchair accessible toilet | Baby change table | Taxi rank","This location is wheelchair accessible | Escalator | Hearing loop | Lift | Wheelchair ramp boarding assistance | Stairs | Tactile surfaces | PA system for announcements","Train, Bus, Taxi"
"Inverell Coach Stop","23604","-29.775287","151.110168","","10150197","Inverell Visitor Information Centre, Campbell St, Inverell NSW 2360","","","Coach"
"Ivanhoe Station","28782","-32.914304","144.311759","13 22 32","10155007","Mitchell St, Ivanhoe NSW 2878","Toilets","This location is wheelchair accessible","Train"
"Jannali Station","222620","-34.01612866","151.0646645","02 9522 1283","10101344","Cnr Jannali Ave & Mitchell Ave, Jannali NSW 2226","Bike lockers | Bike racks | Commuter car park | Emergency help point | Kiss and ride stopping area | Payphone | Opal card top up or single trip ticket machine | Toilets | Wheelchair accessible car space | Wheelchair accessible payphone | Taxi rank","Hearing loop | Stairs | Tactile surfaces | This location is not wheelchair accessible | PA system for announcements","Train, Bus, Taxi"
"Jindabyne Coach Stop","26271","-36.41471","148.622126","","10161933","Snowy Region Visitor Information Centre, Kosciuszko Rd, Jindabyne NSW 2627","","","Coach"
"John Street Square Light Rail","200939","-33.86722922","151.1918901","","10101436","Harris St, Pyrmont NSW 2009","Emergency help point | Opal card top up or single trip ticket machine","This location is wheelchair accessible | Level crossing | Lift | Stairs | Tactile surfaces | PA system for announcements","Light rail"
"Jubilee Park Light Rail","203779","-33.87537487","151.1787626","","10101432","Chapman Rd, Glebe NSW 2037","Emergency help point | Opal card top up or single trip ticket machine","This location is wheelchair accessible | Level crossing | Stairs | Tactile surfaces | PA system for announcements","Light rail"
"Junee Station","26631","-34.87026","147.583766","13 22 32","10155047","Railway Sq, Junee NSW 2663","Commuter car park | Emergency help point | Payphone | Toilets | Wheelchair accessible car space | Wheelchair accessible toilet | Taxi rank","This location is wheelchair accessible | Wheelchair ramp boarding assistance | Stairs | PA system for announcements","Train, Taxi"
"Katoomba Station","278020","-33.71157344","150.3111602","02 4782 1902","10101268","Goldsmith Pl, Katoomba NSW 2780","Bike lockers | Bike racks | Commuter car park | Emergency help point | Kiss and ride stopping area | Payphone | Opal card top up or single trip ticket machine | Toilets | Wheelchair accessible car space | Wheelchair accessible payphone | Wheelchair accessible toilet | Baby change table | Taxi rank","This location is wheelchair accessible | Hearing loop | Lift | Stairs | Tactile surfaces | PA system for announcements","Train, Bus, Taxi"
"Kembla Grange Station","253010","-34.47021836","150.8173407","02 4223 5488","10101379","Grange St, Kembla Grange NSW 2526","Commuter car park | Emergency help point | Kiss and ride stopping area | Payphone | No Opal card top up or single trip ticket sales","This location is not wheelchair accessible | PA system for announcements | Short platforms, leave the train from the last 4 cars","Train"
"Kempsey Station","24401","-31.076852","152.833041","13 22 32","10155046","Kemp St, Kempsey NSW 2440","Commuter car park | Payphone | Toilets | Wheelchair accessible car space | Wheelchair accessible toilet | Baby change table | Taxi rank","This location is wheelchair accessible | Wheelchair ramp boarding assistance | PA system for announcements","Train, Bus, Taxi"
"Kendall Station","24391","-31.635404","152.706288","13 22 32","10155040","Railway St, Kendall NSW 2439","Commuter car park | Emergency help point | Payphone | Toilets | Wheelchair accessible car space","This location is wheelchair accessible | Wheelchair ramp boarding assistance | PA system for announcements | Short platforms, please see the train guard","Train"
"Kiama Station","253330","-34.67251778","150.8546947","02 4223 5613","10101386","Railway Pde, Kiama NSW 2533","Bike lockers | Bike racks | Commuter car park | Emergency help point | Kiss and ride stopping area | Payphone | Opal card top up or single trip ticket machine | Toilets | Wheelchair accessible car space | Wheelchair accessible payphone | Wheelchair accessible toilet | Baby change table | Taxi rank","This location is wheelchair accessible | Hearing loop | Lift | Stairs | Tactile surfaces | PA system for announcements","Train, Bus, Taxi"
"Killara Station","207110","-33.76540899","151.1616474","02 9847 8440","10101120","Culworth Ave, Killara NSW 2071","Commuter car park | Emergency help point | Kiss and ride stopping area | Payphone | Opal card top up or single trip ticket machine | Toilets | Wheelchair accessible car space","Hearing loop | Stairs | This location is not wheelchair accessible | PA system for announcements","Train, Bus"
"Kings Cross Station","201110","-33.87454091","151.2223342","02 9379 1204","10101107","Victoria St, Potts Point NSW 2011","Emergency help point | Kiss and ride stopping area | Payphone | Opal card top up or single trip ticket machine | Taxi rank","This location is wheelchair accessible | Escalator | Lift | Wheelchair ramp boarding assistance | Stairs | Tactile surfaces | PA system for announcements","Train, Bus, Taxi"
"Kingscliff Coach Stop (northbound)","248730","-28.255587","153.575369","","10150156","Kingscliff Shopping Village, Pearl St, Kingscliff NSW 2487","","","Coach"
"Kingscliff Coach Stop (southbound)","248731","-28.25632","153.576559","","10150158","Pearl St opp St Anthonys Catholic Church, Kingscliff NSW 2487","","","Coach"
"Kingsgrove Station","220810","-33.94063602","151.1004839","02 9563 7623","10101412","Mashman Ave, Kingsgrove NSW 2208","Bike lockers | Bike racks | Commuter car park | Emergency help point | Kiss and ride stopping area | Payphone | Opal card top up or single trip ticket machine | Toilets | Wheelchair accessible toilet (MLAK) | Taxi rank","This location is wheelchair accessible | Hearing loop | Lift | Wheelchair ramp boarding assistance | Stairs | Tactile surfaces | PA system for announcements","Train, Bus, Taxi"
"Kingswood Station","274720","-33.7582512","150.7198236","02 4780 3814","10101251","Great Western Hwy, Kingswood 2747 NSW 2747","Bike lockers | Bike racks | Commuter car park | Emergency help point | Kiss and ride stopping area | Opal card top up or single trip ticket machine | Toilets | Wheelchair accessible car space | Wheelchair accessible toilet | Baby change table | Taxi rank","Hearing loop | Wheelchair ramp boarding assistance | Stairs | This location is not wheelchair accessible | PA system for announcements","Train, Bus, Taxi"
"Kirrawee Station","223230","-34.03501535","151.0713153","02 9522 1281","10101346","Oak Rd, Kirrawee NSW 2232","Emergency help point | Kiss and ride stopping area | Payphone | Opal card top up or single trip ticket machine | Toilets | Wheelchair accessible payphone | Wheelchair accessible toilet | Taxi rank","This location is wheelchair accessible | Hearing loop | Lift | Wheelchair ramp boarding assistance | Stairs | Tactile surfaces | PA system for announcements","Train, Taxi"
"Kirribilli Wharf","20614","-33.84936725","151.2202795","","10102018","Holbrook Ave, Kirribilli NSW 2061","Emergency help point | Opal card top up or single trip ticket machine","Hearing loop | Stairs | This location is not wheelchair accessible | PA system for announcements","Ferry"
"Kissing Point Wharf","21122","-33.8316867","151.1019831","","10102037","Waterview St, Putney NSW 2112","Bike lockers | Commuter car park | Emergency help point | No Opal card top up or single trip ticket sales | Toilets | Wheelchair accessible car space","This location is wheelchair accessible | Hearing loop | PA system for announcements","Ferry"
"Kogarah Station","221710","-33.96214931","151.1326415","02 9563 7273","10101336","Railway Pde, Kogarah NSW 2217","Bike lockers | Bike racks | Commuter car park | Emergency help point | Kiss and ride stopping area | Payphone | Opal card top up or single trip ticket machine | Toilets | Wheelchair accessible car space | Wheelchair accessible toilet | Taxi rank","This location is wheelchair accessible | Escalator | Hearing loop | Lift | Wheelchair ramp boarding assistance | Stairs | Tactile surfaces | PA system for announcements","Train, Bus, Taxi"
"Koolewong Station","225620","-33.46697442","151.318655","02 4349 9230","10101136","Brisbane Water Dr, Koolewong NSW 2256","Commuter car park | Emergency help point | Kiss and ride stopping area | Payphone | No Opal card top up or single trip ticket sales | Toilets | Wheelchair accessible toilet","Level crossing | This location is not wheelchair accessible | PA system for announcements | Short platforms, leave the train from the last car","Train, Bus"
"Kootingal Station","23521","-31.058731","151.056154","13 22 32","10155012","Gate St, Kootingal NSW 2352","","This location is wheelchair accessible | Wheelchair ramp boarding assistance | PA system for announcements | Short platforms, please see the train guard","Train"
"Kotara Station","228910","-32.94139627","151.6984933","02 4962 9437","10101158","Park Ave, Kotara NSW 2289","Emergency help point | No Opal card top up or single trip ticket sales","Stairs | This location is not wheelchair accessible | PA system for announcements | Short platforms, leave the train from the last 4 cars","Train, Bus"
"Kurraba Point Wharf","20892","-33.84342906","151.2218291","","10102024","Kurraba Rd, Kurraba Point NSW 2089","Emergency help point | No Opal card top up or single trip ticket sales","Hearing loop | This location is not wheelchair accessible | PA system for announcements","Ferry"
"Kyogle Station","24741","-28.620185","153.001284","13 22 32","10155066","Ettrick St, Kyogle NSW 2474","","This location is wheelchair accessible | Wheelchair ramp boarding assistance | PA system for announcements | Short platforms, please see the train guard","Train"
"Lake Cargelligo Coach Stop","26721","-33.299081","146.374193","","10150102","Canada St after Foster St, Lake Cargelligo NSW 2672","","","Coach"
"Lakemba Station","219510","-33.92012699","151.0759555","02 9563 7549","10101398","The Boulevarde, Lakemba NSW 2195","Commuter car park | Emergency help point | Kiss and ride stopping area | Payphone | Opal card top up or single trip ticket machine | Toilets | Wheelchair accessible car space | Wheelchair accessible toilet | Taxi rank","This location is wheelchair accessible | Hearing loop | Lift | Wheelchair ramp boarding assistance | Stairs | Tactile surfaces | PA system for announcements","Train, Bus, Taxi"
"Lane Cove Bus Interchange","2066251","-33.81234789","151.1712926","","10113474","Epping Rd, Lane Cove North NSW 2066","Bike lockers | Bike racks","Lift","Bus"
"Lapstone Station","275030","-33.77369788","150.6427966","02 4780 3813","10101254","Explorers Rd, Lapstone NSW 2773","Commuter car park | Emergency help point | Payphone | No Opal card top up or single trip ticket sales | Toilets | Wheelchair accessible car space","Stairs | This location is not wheelchair accessible | PA system for announcements | Short platforms, leave the train from the last 6 cars","Train"
"Lawson Station","278310","-33.71914485","150.4298244","02 4780 3914","10101264","Loftus St, Lawson NSW 2783","Commuter car park | Emergency help point | Payphone | No Opal card top up or single trip ticket sales | Toilets | Wheelchair accessible car space | Wheelchair accessible payphone | Taxi rank","Stairs | This location is not wheelchair accessible | PA system for announcements | Short platforms, leave the train from the last 6 cars","Train, Bus, Taxi"
"Leeton Station","27051","-34.554328","146.397659","13 22 32","10155020","Railway Ave, Leeton NSW 2705","","Wheelchair ramp boarding assistance","Train"
"Leichhardt North Light Rail","2040113","-33.87498209","151.1538683","","10101454","Darley Rd, Lilyfield NSW 2040","Bike racks | Emergency help point | Kiss and ride stopping area | No Opal card top up or single trip ticket sales","This location is wheelchair accessible | Hearing loop | Level crossing | Lift | Stairs | Tactile surfaces | PA system for announcements","Light rail"
"Leightonfield Station","216310","-33.8815017","150.9849671","02 9379 7704","10101406","Christine Rd, Villawood NSW 2163","Commuter car park | Emergency help point | Kiss and ride stopping area | Payphone | No Opal card top up or single trip ticket sales | Toilets","Stairs | Tactile surfaces | This location is not wheelchair accessible | PA system for announcements","Train, Bus"
"Lennox Head Coach Stop (northbound)","24783","-28.797639","153.593009","","10150447","Lennox Head Medical Centre, Ballina St, Lennox Head NSW 2478","","","Coach, Bus"
"Lennox Head Coach Stop (southbound)","24784","-28.794299","153.594044","","10150145","Lennox Park, Ballina St, Lennox Head NSW 2478","","","Coach, Bus"
"Leppington Station","217933","-33.9544","150.8081","02 9765 1444","10101448","Rickard Rd, Leppington NSW 2179","Bike racks | Commuter car park | Emergency help point | Kiss and ride stopping area | Payphone | Opal card top up or single trip ticket machine | Toilets | Wheelchair accessible car space | Wheelchair accessible toilet | Baby change table | Taxi rank","This location is wheelchair accessible | Hearing loop | Lift | Wheelchair ramp boarding assistance | Stairs | Tactile surfaces | PA system for announcements","Train, Bus, Taxi"
"Leumeah Station","256010","-34.0511705","150.8300507","02 4629 0847","10101295","O'Sullivan Rd, Leumeah NSW 2560","Bike lockers | Bike racks | Commuter car park | Emergency help point | Kiss and ride stopping area | Payphone | Opal card top up or single trip ticket machine | Toilets | Wheelchair accessible car space | Taxi rank","This location is wheelchair accessible | Hearing loop | Lift | Wheelchair ramp boarding assistance | Stairs | Tactile surfaces | PA system for announcements","Train, Bus, Taxi"
"Leura Station","278010","-33.71172185","150.3302704","02 4780 3933","10101267","Railway Pde, Leura NSW 2780","Commuter car park | Emergency help point | Payphone | Opal card top up or single trip ticket machine | Toilets | Taxi rank","Stairs | This location is not wheelchair accessible | PA system for announcements | Short platforms, leave the train from the last 6 cars","Train, Bus, Taxi"
"Lewisham Station","204920","-33.89327853","151.1472725","02 9752 8029","10101211","Cnr Railway Tce & Victoria St, Lewisham NSW 2049","Emergency help point | Kiss and ride stopping area | Payphone | Opal card top up or single trip ticket machine | Toilets","Hearing loop | Stairs | Tactile surfaces | This location is not wheelchair accessible | PA system for announcements","Train, Bus"
"Lewisham West Light Rail","204993","-33.89398857","151.1432381","","10101458","Hudson St, Lewisham NSW 2049","Bike racks | Emergency help point | No Opal card top up or single trip ticket sales","This location is wheelchair accessible | Hearing loop | Level crossing | Tactile surfaces | PA system for announcements","Light rail"
"Lidcombe Station","214110","-33.86388935","151.0453895","02 9752 8432","10101218","Railway Pde, Lidcombe NSW 2141","Bike lockers | Bike racks | Commuter car park | Emergency help point | Kiss and ride stopping area | Payphone | Opal card top up or single trip ticket machine | Toilets | Wheelchair accessible car space | Wheelchair accessible toilet | Taxi rank","This location is wheelchair accessible | Hearing loop | Lift | Wheelchair ramp boarding assistance | Stairs | Tactile surfaces | PA system for announcements","Train, Bus, Taxi"
"Lightning Ridge Coach Stop","28341","-29.427061","147.98034","","10150088","The Opal Cave Tourist Centre, Morilla St, Lightning Ridge NSW 2834","","","Coach"
"Lilyfield Light Rail","2040115","-33.87408114","151.1651053","","10101430","Catherine St, Lilyfield NSW 2040","Emergency help point | Opal card top up or single trip ticket machine","This location is wheelchair accessible | Level crossing | Lift | Stairs | Tactile surfaces | PA system for announcements","Light rail"
"Linden Station","277820","-33.71500231","150.5052641","02 4751 1018","10101261","Great Western Hwy, Linden NSW 2778","Emergency help point | No Opal card top up or single trip ticket sales","Level crossing | Stairs | This location is not wheelchair accessible | PA system for announcements | Short platforms, leave the train from the last 4 cars","Train, Bus"
